City ID,City,Cloudiness,Country,Date,Humidity,Latitude,Longitude,Max Temp,Wind Speed
0,Rikitea,100,PF,1594694160,84.0,-23.12,-134.97,72.7,15.21
1,Oranjemund,8,,1594694752,76.0,-28.55,16.43,53.01,7.72
2,Clyde River,1,CA,1594694100,81.0,70.47,-68.59,46.4,5.82
3,Lanigan,70,CA,1594694583,87.0,51.85,-105.03,55.54,12.39
4,Port Alfred,8,ZA,1594694484,49.0,-33.59,26.89,54.57,28.7
5,Amapá,0,BR,1594694498,95.0,1.0,-52.0,70.9,1.23
6,Butaritari,99,KI,1594694170,78.0,3.07,172.79,80.64,9.33
7,La Ronge,75,CA,1594694164,59.0,55.1,-105.28,62.6,10.29
8,Cauayan,100,PH,1594694752,70.0,9.97,122.62,84.92,3.29
9,Albany,34,US,1594694483,65.0,42.6,-73.97,75.99,1.01
10,Anuradhapura,39,LK,1594694753,72.0,8.36,80.42,82.74,13.42
11,Arraial do Cabo,12,BR,1594693978,69.0,-22.97,-42.03,73.24,3.98
12,Okhtyrka,100,UA,1594694753,92.0,50.31,34.9,58.95,11.07
13,New Norfolk,14,AU,1594694753,88.0,-42.78,147.06,48.99,1.63
14,Mae Sai,75,TH,1594694753,83.0,20.43,99.88,80.6,5.82
15,Punta Arenas,98,CL,1594694753,86.0,-53.15,-70.92,33.8,4.79
16,San Juan,0,AR,1594694753,72.0,-31.54,-68.54,39.33,0.22
17,Avarua,100,CK,1594694753,56.0,-21.21,-159.78,71.6,11.41
18,Qaanaaq,1,GL,1594694753,70.0,77.48,-69.36,42.33,3.6
19,Katsuura,75,JP,1594694753,94.0,35.13,140.3,75.99,11.41
20,Ushuaia,40,AR,1594693883,92.0,-54.8,-68.3,32.0,17.22
21,Sisimiut,83,GL,1594694754,86.0,66.94,-53.67,42.44,9.44
22,Kaitangata,71,NZ,1594694754,61.0,-46.28,169.85,51.01,8.01
23,Lugovoy,63,KZ,1594694754,27.0,42.95,72.76,78.84,7.7
24,Coos Bay,1,US,1594694754,77.0,43.37,-124.22,66.99,26.4
25,Chui,0,UY,1594694754,78.0,-33.7,-53.46,36.99,10.02
26,Torbay,75,CA,1594694585,93.0,47.67,-52.73,66.2,12.75
27,Ixtapa,75,MX,1594694360,74.0,20.7,-105.2,86.0,8.05
28,Saint Paul Harbor,90,US,1594694754,76.0,57.79,-152.41,57.2,10.29
29,Talnakh,75,RU,1594694493,87.0,69.49,88.4,55.4,6.71
30,Atuona,42,PF,1594694754,78.0,-9.8,-139.03,79.45,16.71
31,Guerrero Negro,0,MX,1594694322,72.0,27.98,-114.06,71.31,16.64
32,Cape Town,75,ZA,1594694755,66.0,-33.93,18.42,52.0,10.29
33,Jamestown,1,US,1594694755,77.0,42.1,-79.24,68.0,6.93
34,Khatanga,78,RU,1594694166,38.0,71.97,102.5,73.45,12.06
35,Chokurdakh,48,RU,1594694168,30.0,70.63,147.92,67.68,15.48
36,San Quintín,4,MX,1594694121,76.0,30.48,-115.95,70.43,9.82
37,Kapaa,75,US,1594694414,74.0,22.08,-159.32,82.4,13.87
38,Vaini,40,TO,1594694168,69.0,-21.2,-175.2,75.2,9.17
39,Baghdad,0,IQ,1594694564,44.0,33.34,44.4,80.6,8.05
40,Busselton,21,AU,1594694311,60.0,-33.65,115.33,59.0,16.58
41,San Patricio,40,MX,1594694169,79.0,19.22,-104.7,84.2,5.82
42,Blackwater,0,AU,1594694687,31.0,-23.58,148.88,65.3,12.77
43,Hithadhoo,100,MV,1594694161,72.0,-0.6,73.08,84.31,8.21
44,Saint-Philippe,66,RE,1594694178,68.0,-21.36,55.77,66.2,4.7
45,Koutiala,100,ML,1594694756,86.0,12.39,-5.46,73.89,2.64
46,Zeya,46,RU,1594694756,30.0,53.75,127.27,94.91,6.13
47,Jiaozhou,39,CN,1594694756,65.0,36.28,120.0,81.0,6.71
48,Sitka,90,US,1594694174,87.0,57.05,-135.33,55.4,9.17
49,Yelovo,25,RU,1594694756,71.0,57.05,54.92,71.15,7.14
50,Cherskiy,100,RU,1594694483,44.0,68.75,161.3,66.99,7.27
51,Basco,84,PH,1594694505,78.0,20.45,121.97,84.24,22.06
52,Bandarbeyla,94,SO,1594694757,65.0,9.49,50.81,79.59,26.69
53,Yuli,97,NG,1594694757,89.0,9.7,10.27,72.86,2.89
54,Dunedin,37,NZ,1594694757,66.0,-45.87,170.5,50.0,8.01
55,Del Rio,1,US,1594694710,14.0,29.36,-100.9,104.0,9.17
56,Río Gallegos,90,AR,1594694757,86.0,-51.62,-69.22,33.8,11.41
57,Mataura,92,NZ,1594694483,83.0,-46.19,168.86,46.65,4.38
58,Bambous Virieux,20,MU,1594694199,88.0,-20.34,57.76,68.0,5.82
59,Kalmunai,89,LK,1594694757,68.0,7.42,81.82,84.25,8.72
60,Thompson,75,CA,1594694199,88.0,55.74,-97.86,64.4,4.7
61,Nouakchott,2,MR,1594694758,78.0,18.09,-15.98,78.93,21.68
62,São Filipe,32,CV,1594694083,84.0,14.9,-24.5,77.68,3.24
63,Vila do Maio,40,CV,1594694497,78.0,15.13,-23.22,78.8,2.24
64,Ouro Preto,0,BR,1594694758,84.0,-20.39,-43.51,58.62,2.46
65,Santa Comba,48,ES,1594694758,3.0,43.03,-8.81,63.0,7.0
66,Vila Velha,0,BR,1594694758,94.0,-20.33,-40.29,69.8,3.36
67,Sorong,75,ID,1594694181,81.0,-0.88,131.25,81.36,5.7
68,Balkanabat,1,TM,1594694758,31.0,39.51,54.37,89.6,4.65
69,Souillac,20,MU,1594694172,88.0,-20.52,57.52,68.0,5.82
70,Candelaria,100,PH,1594694758,60.0,13.93,121.42,88.83,5.12
71,Fortuna,1,US,1594694759,76.0,40.6,-124.16,61.0,11.41
72,Polunochnoye,50,RU,1594694759,55.0,60.87,60.42,64.9,3.02
73,Hilo,90,US,1594694483,58.0,19.73,-155.09,82.4,6.93
74,Broome,1,US,1594694183,77.0,42.25,-75.83,64.99,5.82
75,Vila Franca do Campo,20,PT,1594694493,82.0,37.72,-25.43,66.2,6.93
76,Tasiilaq,60,GL,1594694172,75.0,65.61,-37.64,44.6,4.7
77,Coquimbo,5,CL,1594694177,93.0,-29.95,-71.34,50.0,3.33
78,Narsaq,100,GL,1594694759,81.0,60.92,-46.05,50.0,6.93
79,Khovd,100,MN,1594694180,44.0,48.01,91.64,62.38,4.94
80,Leningradskiy,100,RU,1594694185,80.0,69.38,178.42,41.22,11.63
81,Brigantine,90,US,1594694759,57.0,39.41,-74.36,80.6,3.36
82,Maceió,75,BR,1594694417,94.0,-9.67,-35.74,71.6,3.36
83,Sompeta,100,IN,1594694759,76.0,18.93,84.6,84.15,6.49
84,Grand Gaube,0,MU,1594694760,83.0,-20.01,57.66,68.0,4.0
85,Takapau,99,NZ,1594694760,89.0,-40.03,176.35,51.01,3.94
86,Muzhi,21,RU,1594694760,58.0,65.37,64.67,58.8,13.38
87,Ndioum,20,SN,1594694760,56.0,16.51,-14.65,85.95,20.83
88,Arrondissement de Saint-Gaudens,100,FR,1594694760,82.0,43.08,0.67,62.01,6.93
89,Tuktoyaktuk,75,CA,1594694032,52.0,69.45,-133.04,64.4,8.05
90,Egvekinot,96,RU,1594694461,74.0,66.32,-179.17,47.35,3.4
91,Yellowknife,90,CA,1594694180,100.0,62.46,-114.35,57.2,18.34
92,Nikolskoye,0,RU,1594694207,87.0,59.7,30.79,51.01,6.71
93,Airai,29,TL,1594694009,58.0,-8.93,125.41,70.05,5.59
94,Kibala,100,TD,1594694761,94.0,9.11,18.35,72.7,4.76
95,Ilulissat,100,GL,1594694176,87.0,69.22,-51.1,44.6,6.93
96,Cidreira,0,BR,1594694170,69.0,-30.18,-50.21,51.17,15.17
97,George Town,40,MY,1594693981,83.0,5.41,100.34,84.2,4.7
98,Cayenne,1,GF,1594694530,94.0,4.93,-52.33,78.8,6.91
99,Resplendor,32,BR,1594694761,71.0,-19.33,-41.26,66.74,1.34
100,Burnie,0,AU,1594694761,51.0,-41.07,145.92,55.99,5.01
101,Bethel,20,US,1594694166,64.0,41.37,-73.41,73.99,3.36
102,Merrill,1,US,1594694761,73.0,45.18,-89.68,73.4,5.82
103,Fare,100,PF,1594694761,77.0,-16.7,-151.02,79.97,9.98
104,Capitán Bado,99,PY,1594694761,96.0,-23.27,-55.53,64.29,9.93
105,Hermanus,100,ZA,1594694026,76.0,-34.42,19.23,48.99,8.01
106,Manta,26,EC,1594694762,87.0,-0.95,-80.73,69.71,9.93
107,Leshukonskoye,100,RU,1594694447,95.0,64.9,45.76,54.25,6.64
108,Mocuba,0,MZ,1594694762,96.0,-16.84,36.99,56.44,2.68
109,Lebu,2,CL,1594694095,76.0,-37.62,-73.65,47.46,1.86
110,Mandalay,75,MM,1594694599,74.0,21.97,96.08,82.4,8.05
111,Emerald,0,AU,1594694482,35.0,-23.53,148.17,64.99,3.0
112,Hinatuan,71,PH,1594694762,61.0,8.37,126.33,86.94,4.41
113,Vao,100,NC,1594694174,77.0,-22.67,167.48,72.77,11.81
114,Poções,95,BR,1594694762,96.0,-14.53,-40.37,60.82,2.37
115,Castro,5,BR,1594694039,93.0,-24.79,-50.01,60.24,5.5
116,Flinders,89,AU,1594694194,82.0,-34.58,150.86,57.99,10.0
117,Yumen,25,CN,1594694763,32.0,40.28,97.2,78.75,11.27
118,General Roca,45,AR,1594694763,80.0,-39.03,-67.58,35.6,2.24
119,East London,0,ZA,1594694164,45.0,-33.02,27.91,57.11,26.53
120,Barrow,90,US,1594694064,78.0,71.29,-156.79,37.4,11.41
121,Bonavista,100,CA,1594694515,72.0,48.65,-53.11,63.0,1.99
122,Hambantota,40,LK,1594694188,100.0,6.12,81.12,78.8,5.82
123,Oktyabr'skoye,70,RU,1594694763,83.0,43.06,44.74,69.8,2.24
124,Laguna,1,US,1594694185,37.0,38.42,-121.42,89.6,10.29
125,Aitape,92,PG,1594694763,64.0,-3.14,142.35,84.92,6.26
126,Usinsk,27,RU,1594694764,64.0,65.99,57.53,57.56,10.29
127,Fort Nelson,75,CA,1594694764,77.0,58.81,-122.7,62.6,10.29
128,Faanui,87,PF,1594694182,81.0,-16.48,-151.75,79.23,14.12
129,Qaqortoq,100,GL,1594694706,81.0,60.72,-46.03,50.0,6.93
130,Malakal,85,SS,1594694764,89.0,9.53,31.66,72.93,2.08
131,Ponta do Sol,20,PT,1594694764,82.0,32.67,-17.1,68.0,3.36
132,Klaksvík,96,FO,1594694483,100.0,62.23,-6.59,48.2,6.93
133,Turukhansk,99,RU,1594694764,94.0,65.82,87.98,54.54,13.04
134,Esperance,40,AU,1594694181,93.0,-33.87,121.9,50.0,19.46
135,Touros,0,BR,1594694172,88.0,-5.2,-35.46,69.8,3.36
136,Saldanha,87,ZA,1594694167,81.0,-33.01,17.94,50.0,11.41
137,Bukachacha,0,RU,1594694764,41.0,52.98,116.92,81.81,5.53
138,Abu Samrah,0,SY,1594694765,73.0,35.3,37.18,70.68,9.22
139,Gilford,1,US,1594694597,82.0,43.55,-71.41,66.2,2.57
140,Mugur-Aksy,100,RU,1594694765,80.0,50.35,90.5,47.07,8.14
141,Suba,100,PH,1594694765,69.0,10.84,121.01,83.79,4.76
142,Taoyuan,100,CN,1594694765,99.0,32.3,120.62,82.99,5.08
143,Isangel,75,VU,1594694173,65.0,-19.55,169.27,82.4,6.93
144,Kadoma,75,JP,1594694765,100.0,34.73,135.58,75.2,11.41
145,Galveston,1,US,1594694765,83.0,29.37,-94.97,84.2,12.75
146,Matara,100,LK,1594694637,80.0,5.95,80.54,82.56,9.71
147,Naryan-Mar,89,RU,1594693983,73.0,67.67,53.09,50.0,4.99
148,Mayo,90,US,1594694766,74.0,38.89,-76.51,78.8,0.58
149,Bariloche,40,AR,1594694706,73.0,-41.15,-71.31,26.6,4.7
150,Hobart,75,AU,1594694766,70.0,-42.88,147.33,50.0,5.82
151,Puerto Ayora,21,EC,1594694766,92.0,-0.74,-90.35,68.0,6.53
152,Bengkulu,100,ID,1594694029,69.0,-3.8,102.27,82.42,3.89
153,Abhā,0,SA,1594694766,40.0,18.22,42.51,69.8,5.82
154,Great Falls,1,US,1594694766,28.0,47.5,-111.3,68.0,12.75
155,Okhotsk,10,RU,1594694513,60.0,59.38,143.3,69.01,6.15
156,Salalah,90,OM,1594694767,94.0,17.02,54.09,80.6,9.17
157,Tiarei,75,PF,1594694521,94.0,-17.53,-149.33,77.0,5.82
158,Caçu,50,BR,1594694767,54.0,-18.56,-51.13,75.24,0.38
159,Carnarvon,75,AU,1594694767,73.0,-24.87,113.63,73.4,12.75
160,La Rioja,70,ES,1594694767,72.0,42.25,-2.5,59.0,9.17
161,Bredasdorp,99,ZA,1594694181,93.0,-34.53,20.04,46.4,13.87
162,Hong Kong,25,HK,1594694149,66.0,22.29,114.16,93.99,5.99
163,Nanortalik,100,GL,1594694767,93.0,60.14,-45.24,43.84,3.87
164,Deer Lake,92,CA,1594694767,92.0,49.17,-57.43,62.38,3.29
165,Médéa,40,DZ,1594694767,94.0,36.26,2.75,73.4,3.36
166,Qūchān,0,IR,1594694768,26.0,37.11,58.51,77.0,2.19
167,Youghal,75,IE,1594694768,81.0,51.95,-7.85,55.0,17.22
168,Saskylakh,22,RU,1594694321,41.0,71.92,114.08,72.64,12.46
169,Linjiang,83,CN,1594694768,45.0,41.81,126.91,84.54,1.57
170,Richards Bay,0,ZA,1594694037,77.0,-28.78,32.04,64.89,16.15
171,Sirte,3,LY,1594694768,86.0,31.21,16.59,74.62,7.23
172,Namatanai,100,PG,1594694768,70.0,-3.67,152.43,84.13,6.46
173,Whitehorse,75,CA,1594694243,31.0,60.72,-135.05,64.4,9.17
174,Yashalta,100,RU,1594694768,80.0,46.34,42.28,70.57,11.3
175,Muncar,17,ID,1594694769,80.0,-8.43,114.33,81.1,9.53
176,Ambon City,40,ID,1594694769,94.0,-3.7,128.18,77.0,6.93
177,Yakeshi,99,CN,1594694769,41.0,49.28,120.73,83.93,8.5
178,Mbandaka,87,CD,1594694769,96.0,0.05,18.26,69.08,2.82
179,Naze,75,JP,1594694189,70.0,28.37,129.48,89.6,12.75
180,Manggar,100,ID,1594694769,80.0,-2.88,108.27,82.2,12.91
181,Vestmannaeyjar,100,IS,1594694191,88.0,63.44,-20.27,51.6,8.21
182,Laguna de Perlas,8,NI,1594694770,88.0,12.34,-83.67,79.09,8.81
183,Ust-Maya,54,RU,1594694546,54.0,60.42,134.53,85.5,0.81
184,Mar del Plata,0,AR,1594694167,56.0,-38.0,-57.56,41.0,13.87
185,Karpogory,100,RU,1594694770,92.0,64.0,44.45,54.5,10.09
186,Saint George,1,US,1594694177,10.0,37.1,-113.58,105.8,19.46
187,Loreto,0,MX,1594694770,36.0,22.27,-101.97,69.93,17.52
188,Upernavik,99,GL,1594694185,89.0,72.79,-56.15,39.99,19.71
189,Bluff,81,NZ,1594694171,74.0,-46.6,168.33,48.67,13.22
190,Ilawe,94,NG,1594694771,97.0,7.87,4.43,69.46,6.31
191,Limerick,75,IE,1594694771,87.0,52.66,-8.62,53.6,8.05
192,Comodoro Rivadavia,0,AR,1594694771,64.0,-45.87,-67.5,33.8,9.17
193,Antipovka,29,RU,1594694771,41.0,49.83,45.31,79.97,6.73
194,Synya,2,RU,1594694771,60.0,65.37,58.04,57.65,6.06
195,Baykit,47,RU,1594694771,40.0,61.67,96.37,76.55,7.25
196,Landau,95,DE,1594694771,64.0,49.21,8.11,59.0,3.0
197,Yenagoa,100,NG,1594694513,92.0,4.92,6.26,74.34,4.97
198,Ancud,100,CL,1594694113,100.0,-41.87,-73.82,39.0,2.24
199,Voskresenskoye,95,RU,1594694771,97.0,56.84,45.43,70.07,3.58
200,Caravelas,0,BR,1594694211,91.0,-17.71,-39.25,69.87,4.99
201,Kiyasovo,0,RU,1594694772,68.0,56.35,53.12,75.0,1.99
202,Mount Gambier,0,AU,1594694183,76.0,-37.83,140.77,53.6,12.75
203,Pecos,1,US,1594694772,10.0,31.42,-103.49,102.2,9.17
204,Port Elizabeth,40,ZA,1594694772,81.0,-33.92,25.57,50.0,31.09
205,Acapulco de Juárez,5,MX,1594694605,79.0,16.86,-99.89,84.2,2.24
206,Calabozo,24,VE,1594694572,92.0,8.92,-67.43,75.2,4.34
207,Sinnai,0,IT,1594694772,78.0,39.3,9.2,77.0,4.7
208,Cabo San Lucas,5,MX,1594694772,69.0,22.89,-109.91,87.01,6.93
209,Gualaceo,83,EC,1594694773,78.0,-2.9,-78.78,53.89,3.47
210,Palāsa,100,IN,1594694773,80.0,18.77,84.42,82.27,7.09
211,Severo-Kuril'sk,94,RU,1594694773,84.0,50.68,156.12,51.78,2.95
212,Codrington,1,AU,1594694773,69.0,-38.27,141.97,55.92,8.08
213,Alofi,75,NU,1594694773,60.0,-19.06,-169.92,75.2,19.46
214,Tonbridge,99,GB,1594694773,95.0,51.19,0.28,62.01,5.03
215,Korla,45,CN,1594694196,19.0,41.76,86.15,82.11,7.85
216,Bannūr,40,IN,1594694773,88.0,12.33,76.86,73.4,6.93
217,Solnechnyy,18,RU,1594694774,47.0,50.72,136.63,76.82,6.91
218,Marawi,100,PH,1594694186,79.0,8.0,124.29,84.0,4.0
219,Astoria,1,US,1594694692,72.0,46.19,-123.83,64.99,17.22
220,Antalaha,28,MG,1594694774,84.0,-14.9,50.28,65.08,6.46
221,Mlandizi,0,TZ,1594694774,90.0,-6.7,38.73,66.7,3.62
222,Mont-Dore,100,NC,1594694774,99.0,-22.28,166.58,75.99,5.97
223,Kutum,12,SD,1594694202,57.0,14.2,24.67,76.15,5.91
224,Marsabit,50,KE,1594694774,77.0,2.33,37.99,61.0,18.84
225,Lázaro Cárdenas,25,MX,1594694775,77.0,17.96,-102.2,80.35,1.66
226,Seymchan,78,RU,1594694775,47.0,62.88,152.43,76.42,5.12
227,Pevek,11,RU,1594694483,68.0,69.7,170.31,45.09,5.28
228,Berlin,0,DE,1594694490,76.0,52.52,13.41,61.0,3.36
229,Geraldton,90,AU,1594694775,72.0,-28.77,114.6,64.4,17.22
230,Port-Gentil,98,GA,1594694205,88.0,-0.72,8.78,73.18,14.23
231,Wufeng,96,CN,1594694775,79.0,27.45,104.83,70.72,7.09
232,Wajima,75,JP,1594694775,100.0,37.4,136.9,69.8,4.7
233,Colac,7,AU,1594694775,99.0,-38.33,143.58,55.99,1.01
234,Jieshi,0,CN,1594694775,68.0,22.81,115.83,88.54,6.17
235,Māngrol,93,IN,1594694776,77.0,21.12,70.12,84.43,11.01
236,Manavgat,0,TR,1594694776,78.0,36.79,31.44,77.0,1.12
237,Kaeo,91,NZ,1594694680,3.0,-35.1,173.78,63.0,5.01
238,Vardø,75,NO,1594694137,93.0,70.37,31.11,46.4,6.93
239,Harboøre,100,DK,1594694776,56.0,56.62,8.18,57.0,18.01
240,Leh,0,IN,1594694555,35.0,34.17,77.58,59.02,5.73
241,Plettenberg Bay,94,ZA,1594694205,79.0,-34.05,23.37,49.35,21.5
242,Kapit,100,MY,1594694776,94.0,2.02,112.93,75.43,1.32
243,Jistebnice,100,CZ,1594694776,99.0,49.49,14.53,50.0,3.33
244,Atbasar,0,KZ,1594694776,53.0,51.8,68.33,72.86,5.41
245,Morondava,0,MG,1594694777,76.0,-20.28,44.28,63.95,6.6
246,Mirny,40,RU,1594694777,38.0,62.54,113.96,77.0,1.54
247,Katherine,0,AU,1594694777,11.0,-14.47,132.27,75.2,12.75
248,Princeton,1,US,1594694777,83.0,25.54,-80.41,84.0,4.7
249,Havre-St-Pierre,90,CA,1594694777,71.0,50.23,-63.6,55.4,12.75
250,Ribeira Grande,11,PT,1594694777,80.0,38.52,-28.7,68.43,10.02
251,Ceuta,1,ES,1594694777,73.0,35.89,-5.31,73.4,9.17
252,The Valley,40,AI,1594694206,79.0,18.22,-63.06,84.2,9.17
253,Maragogi,12,BR,1594694777,87.0,-9.01,-35.22,73.15,1.59
254,Asău,18,RO,1594694539,89.0,46.43,26.4,48.99,3.6
255,Dikson,100,RU,1594694778,98.0,73.51,80.55,39.42,13.51
256,Muros,62,ES,1594694778,77.0,42.78,-9.06,63.0,5.99
257,Mae Sot,75,TH,1594694778,83.0,16.72,98.57,80.6,2.77
258,Ijuí,0,BR,1594694778,80.0,-28.39,-53.91,44.26,5.5
259,Samarai,81,PG,1594694451,86.0,-10.62,150.67,79.38,9.98
260,Zhigansk,0,RU,1594694212,47.0,66.77,123.37,71.19,5.26
261,Quatre Cocos,20,MU,1594694546,88.0,-20.21,57.76,68.0,5.82
262,Fengzhen,0,CN,1594694778,47.0,40.44,113.15,76.35,1.28
263,Toktogul,92,KG,1594694778,46.0,41.87,72.94,72.81,0.43
264,Kattivākkam,75,IN,1594694778,74.0,13.22,80.32,84.2,5.82
265,Bāsugaon,99,IN,1594694779,76.0,26.47,90.4,85.73,4.36
266,Buraidah,0,SA,1594694205,31.0,26.33,43.98,91.4,8.05
267,Sweetwater,40,US,1594694779,79.0,25.76,-80.37,84.2,3.36
268,Porvoo,3,FI,1594694529,96.0,60.39,25.67,48.0,5.91
269,Soyo,27,AO,1594694779,83.0,-6.13,12.37,70.18,7.54
270,Makat,41,KZ,1594694725,21.0,47.65,53.35,93.74,13.29
271,San Lorenzo,42,PY,1594694779,67.0,-25.33,-57.53,59.0,10.29
272,Port Antonio,20,JM,1594694771,70.0,18.18,-76.46,87.8,9.17
273,Waingapu,29,ID,1594694424,67.0,-9.66,120.26,82.38,17.58
274,Nago,40,JP,1594694779,75.0,26.59,127.98,89.6,11.41
275,Pangnirtung,100,CA,1594694186,55.0,66.15,-65.71,53.02,4.54
276,Natal,7,BR,1594694713,88.0,-5.79,-35.21,69.8,3.36
277,Kruisfontein,89,ZA,1594694780,78.0,-34.0,24.73,46.9,24.81
278,Diveyevo,8,RU,1594694780,93.0,55.04,43.24,67.23,7.74
279,Kirovo-Chepetsk,98,RU,1594694780,95.0,58.55,50.04,67.33,11.81
280,Iracoubo,0,GF,1594694780,84.0,5.48,-53.2,77.81,7.16
281,Elizabeth City,1,US,1594694780,94.0,36.29,-76.25,75.2,3.15
282,Port Hedland,0,AU,1594694433,15.0,-20.32,118.57,78.8,13.87
283,Lüderitz,0,,1594694780,66.0,-26.65,15.16,55.4,13.87
284,Belūsovka,90,KZ,1594694780,87.0,50.13,82.52,60.8,2.93
285,Albacete,41,ES,1594694781,77.0,38.83,-2.0,66.2,6.93
286,Doha,41,QA,1594694622,70.0,25.29,51.53,95.0,1.79
287,Riyadh,50,SA,1594694742,20.0,24.69,46.72,93.2,3.36
288,Kuito,0,AO,1594694781,49.0,-12.38,16.93,48.51,2.98
289,Adrar,0,MR,1594694781,16.0,20.5,-10.07,93.47,12.55
290,Labuhan,0,ID,1594694781,67.0,-6.88,112.21,84.11,5.93
291,Yulara,0,AU,1594694781,33.0,-25.24,130.99,59.0,11.41
292,Kyshtovka,15,RU,1594694781,71.0,56.55,76.63,69.35,11.3
293,Mitchell,1,US,1594694623,74.0,43.71,-98.03,78.8,5.82
294,Gravdal,22,NO,1594694782,85.0,68.12,13.5,52.38,8.46
295,Champerico,100,GT,1594694200,71.0,14.3,-91.92,82.47,0.83
296,Pindiga,57,NG,1594694782,92.0,9.98,10.93,71.33,7.74
297,Aracaju,40,BR,1594694251,88.0,-10.91,-37.07,75.2,2.24
298,Linhares,48,BR,1594694782,96.0,-19.39,-40.07,67.51,4.03
299,Quelimane,0,MZ,1594694782,77.0,-17.88,36.89,68.0,3.36
300,Marsh Harbour,100,BS,1594694782,76.0,26.54,-77.06,83.73,9.26
301,Thinadhoo,4,MV,1594694193,68.0,0.53,72.93,84.97,6.15
302,Phan Thiet,57,VN,1594694782,64.0,10.93,108.1,87.55,6.08
303,Araouane,57,ML,1594694518,27.0,18.9,-3.53,94.19,11.1
304,Ozark,0,US,1594694782,77.0,37.02,-93.21,77.0,6.78
305,Basirpur,0,PK,1594694783,38.0,30.58,73.83,98.22,7.85
306,Domoni,92,KM,1594694783,74.0,-12.26,44.53,73.99,9.35
307,Zhezkazgan,0,KZ,1594694205,40.0,47.8,67.71,71.6,20.13
308,Muromtsevo,0,RU,1594694783,63.0,56.37,75.24,71.33,8.81
309,Yining,100,CN,1594694526,72.0,29.04,114.56,90.0,1.74
310,Belyy Yar,100,RU,1594694783,73.0,53.6,91.39,69.8,8.95
311,Port Hardy,20,CA,1594694210,77.0,50.7,-127.42,60.8,9.17
312,Shelburne,20,CA,1594694536,82.0,44.08,-80.2,64.4,2.24
313,São João da Barra,0,BR,1594694784,81.0,-21.64,-41.05,71.64,5.66
314,Yangi Marg`ilon,76,UZ,1594694446,50.0,40.43,71.72,77.0,2.24
315,Fonte Boa,9,BR,1594694784,92.0,-2.5,-66.27,72.99,2.08
316,Camacha,75,PT,1594694784,73.0,33.08,-16.33,69.8,12.75
317,Mount Isa,59,AU,1594694784,24.0,-20.73,139.5,66.2,13.87
318,Sobolevo,99,RU,1594694520,92.0,54.43,31.9,51.57,11.12
319,Praia da Vitória,20,PT,1594694521,82.0,38.73,-27.07,68.0,8.79
320,Auray,39,FR,1594694784,71.0,47.67,-2.99,55.99,4.7
321,Salamiyah,0,SY,1594694784,80.0,35.01,37.05,69.42,7.83
322,Nome,1,US,1594694759,66.0,64.5,-165.41,62.01,20.8
323,Tuatapere,72,NZ,1594694537,75.0,-46.13,167.68,48.24,6.35
324,Nyurba,13,RU,1594694784,43.0,63.28,118.33,82.18,2.01
325,Kungurtug,100,RU,1594694785,82.0,50.6,97.52,58.8,1.63
326,Batagay-Alyta,16,RU,1594694785,33.0,67.8,130.41,74.12,12.48
327,El Reno,1,US,1594694785,78.0,35.53,-97.95,84.99,12.75
328,Nelson Bay,75,AU,1594694338,82.0,-32.72,152.15,63.0,24.16
329,Provideniya,90,RU,1594694785,81.0,64.38,-173.3,50.0,11.18
330,Sarakhs,40,IR,1594694785,41.0,36.54,61.16,78.8,3.62
331,Rudnyy,5,KZ,1594694785,53.0,52.96,63.12,75.2,4.47
332,Ereymentau,0,KZ,1594694785,57.0,51.62,73.1,73.0,7.61
333,Sabang,88,ID,1594694550,76.0,5.89,95.32,81.99,4.09
334,Saint-Gédéon,75,CA,1594694785,93.0,48.5,-71.77,62.6,4.7
335,Salou,0,ES,1594694786,49.0,41.08,1.14,73.99,8.05
336,Nisporeni,0,MD,1594694786,71.0,47.08,28.18,57.2,9.17
337,Dos Hermanas,0,ES,1594694786,73.0,37.28,-5.92,75.2,4.7
338,Kwang Binh,14,VN,1594694786,46.0,17.48,106.6,93.88,1.23
339,Racale,5,IT,1594694786,88.0,39.96,18.09,69.01,13.87
340,Rundu,0,,1594694786,43.0,-17.93,19.77,44.13,3.22
341,Moa,19,CU,1594694786,85.0,20.66,-74.94,81.1,5.68
342,Vagay,3,RU,1594694786,57.0,57.94,69.02,71.76,2.66
343,Haines Junction,100,CA,1594694416,42.0,60.75,-137.51,60.21,7.74
344,Aleksandrov Gay,82,RU,1594694787,25.0,50.15,48.57,88.45,15.01
345,Fairbanks,75,US,1594694493,63.0,64.84,-147.72,66.2,2.15
346,Nuuk,82,GL,1594694682,100.0,64.18,-51.72,39.2,6.93
347,Osmaniye,37,TR,1594694552,86.0,37.07,36.25,79.0,1.23
348,Vágur,31,FO,1594694718,93.0,61.47,-6.81,50.23,14.45
349,Potosí,0,BO,1594694787,64.0,-19.58,-65.75,37.13,2.89
350,Pitrufquén,20,CL,1594694787,100.0,-38.98,-72.65,33.8,2.24
351,Maţāy,0,EG,1594694787,68.0,28.42,30.78,71.73,7.74
352,Yerbogachën,100,RU,1594694787,52.0,61.28,108.01,74.48,4.14
353,Kaura Namoda,14,NG,1594694788,78.0,12.59,6.58,76.37,10.6
354,Malanje,29,AO,1594694788,91.0,-9.54,16.34,55.89,2.48
355,Tiznit Province,0,MA,1594694788,57.0,29.58,-9.5,72.36,1.21
356,Maniitsoq,8,GL,1594694788,84.0,65.42,-52.9,43.34,19.13
357,Coyhaique,69,CL,1594693919,95.0,-45.58,-72.07,32.0,3.36
358,Labytnangi,70,RU,1594694788,59.0,66.66,66.42,55.58,14.5
359,El Alto,87,PE,1594694506,87.0,-4.27,-81.21,63.07,17.43
360,Homer,75,US,1594694788,59.0,59.64,-151.55,60.8,8.05
361,Piaçabuçu,5,BR,1594694789,89.0,-10.41,-36.43,73.47,5.23
362,Manatí,10,PR,1594694789,90.0,18.43,-66.49,81.0,6.04
363,Shakhtinsk,0,KZ,1594694789,51.0,49.71,72.59,71.35,11.86
364,Dzilam González,40,MX,1594694789,82.0,21.28,-88.93,84.99,5.68
365,Saint-Joseph,32,RE,1594694674,68.0,-21.37,55.62,66.2,5.82
366,Koson,0,UZ,1594694789,44.0,39.04,65.58,78.8,9.17
367,Cap Malheureux,0,MU,1594694789,83.0,-19.98,57.61,68.0,4.0
368,Mahon,1,ES,1594694789,88.0,39.89,4.27,68.0,5.82
369,Iqaluit,20,CA,1594694522,50.0,63.75,-68.51,57.2,10.29
370,Aginskoye,0,RU,1594694790,54.0,51.1,114.53,78.78,3.91
371,Turinsk,27,RU,1594694790,62.0,58.05,63.7,70.74,5.82
372,Punta Cardon,66,VE,1594694790,83.0,11.66,-70.22,80.08,25.97
373,Kidal,41,ML,1594694790,40.0,18.44,1.41,87.06,14.58
374,Tabou,100,CI,1594694428,82.0,4.42,-7.35,75.45,9.95
375,Dauphin,1,CA,1594694790,82.0,51.15,-100.05,60.8,8.05
376,Moose Factory,1,CA,1594694525,87.0,51.26,-80.61,55.4,3.36
377,Yar-Sale,52,RU,1594694038,57.0,66.83,70.83,56.16,19.26
378,Dillon,1,US,1594694791,94.0,34.42,-79.37,75.0,2.19
379,Teyateyaneng,10,LS,1594694791,97.0,-29.15,27.75,31.55,4.9
380,Brae,97,GB,1594694791,100.0,60.4,-1.35,51.8,13.87
381,Verkhnyaya Inta,48,RU,1594694791,63.0,65.98,60.31,56.89,11.32
382,Mahébourg,20,MU,1594694791,88.0,-20.41,57.7,68.0,5.82
383,Pathein,97,MM,1594694791,73.0,16.78,94.73,84.02,7.45
384,Saint Anthony,90,US,1594694195,57.0,45.02,-93.22,81.0,13.87
385,Kazachinskoye,63,RU,1594694791,50.0,57.7,93.28,77.41,3.0
386,Meulaboh,76,ID,1594694207,63.0,4.14,96.13,84.65,2.57
387,Arandis,0,,1594694792,92.0,-22.42,14.97,48.99,1.99
388,Half Moon Bay,90,US,1594694093,87.0,37.46,-122.43,66.2,5.82
389,Lavrentiya,10,RU,1594694203,62.0,65.58,-171.0,50.72,8.81
390,Olivenza,0,ES,1594694792,44.0,38.68,-7.1,79.0,3.67
391,Cortez,40,US,1594694792,21.0,37.35,-108.59,84.2,17.22
392,Athmallik,100,IN,1594694792,77.0,20.72,84.53,83.64,6.8
393,Marakkanam,100,IN,1594694792,70.0,12.2,79.95,85.35,9.28
394,Los Llanos de Aridane,20,ES,1594694444,77.0,28.66,-17.92,69.8,13.87
395,Hobyo,37,SO,1594694792,77.0,5.35,48.53,76.98,20.83
396,Laizhou,52,CN,1594694792,59.0,37.18,119.93,78.96,6.04
397,Syumsi,0,RU,1594694792,82.0,57.11,51.61,72.64,6.31
398,Trairi,1,BR,1594694793,80.0,-3.28,-39.27,74.98,8.41
399,Nacala,61,MZ,1594694793,90.0,-14.54,40.67,65.97,8.79
400,Mīnāb,75,IR,1594694793,84.0,27.15,57.08,89.6,4.7
401,Yārāda,75,IN,1594694793,88.0,17.65,83.27,80.6,2.24
402,Toamasina,0,MG,1594694793,85.0,-18.17,49.38,64.4,4.5
403,Ahipara,79,NZ,1594694793,69.0,-35.17,173.17,62.15,7.47
404,Camopi,0,GF,1594694793,96.0,3.17,-52.32,71.11,2.55
405,Longyearbyen,75,SJ,1594694793,76.0,78.22,15.64,48.2,4.7
406,Lompoc,20,US,1594694676,77.0,34.64,-120.46,60.8,11.41
407,Kununurra,0,AU,1594694793,18.0,-15.77,128.73,73.4,9.17
408,Marsaxlokk,75,MT,1594694793,94.0,35.84,14.54,73.99,4.7
409,Kaoma,0,ZM,1594694794,62.0,-14.78,24.8,48.24,4.18
410,Tiksi,100,RU,1594694197,94.0,71.69,128.87,41.94,7.83
411,Lakshmeshwar,97,IN,1594694794,79.0,15.13,75.47,75.22,13.13
412,Darapidap,91,PH,1594694794,70.0,17.21,120.41,83.93,8.61
413,Iquique,0,CL,1594694794,82.0,-20.22,-70.14,55.4,5.82
414,Kushima,75,JP,1594694108,78.0,31.46,131.23,82.4,12.75
415,Bandundu Province,65,CD,1594694794,79.0,-3.32,17.37,73.2,2.8
416,Preobrazheniye,15,RU,1594694794,68.0,42.9,133.91,67.82,6.67
417,Province of Mantua,18,IT,1594694794,75.0,45.17,10.78,64.0,1.99
418,Norman Wells,75,CA,1594694197,49.0,65.28,-126.83,69.8,4.7
419,San Rafael,36,AR,1594694208,71.0,-34.62,-68.33,40.06,2.19
420,Williams Lake,20,CA,1594694795,42.0,52.14,-122.14,62.6,3.36
421,Takhtamygda,19,RU,1594694527,25.0,54.1,123.57,96.71,3.56
422,Ubari,0,LY,1594694795,33.0,26.59,12.78,73.62,8.59
423,Sémbé,63,CG,1594694795,93.0,1.65,14.58,67.91,2.08
424,Carutapera,12,BR,1594694795,94.0,-1.2,-46.02,74.52,5.46
425,Sault Ste. Marie,1,CA,1594694795,59.0,46.52,-84.33,66.2,1.79
426,Geelong,90,AU,1594694682,71.0,-38.15,144.36,55.99,12.75
427,Sarangani,82,PH,1594694503,68.0,5.4,125.46,84.43,8.39
428,North Battleford,20,CA,1594694674,87.0,52.78,-108.28,55.99,10.29
429,Uruçuí,96,BR,1594694796,45.0,-7.23,-44.56,81.59,7.36
430,Wanlaweyn,75,SO,1594694796,86.0,2.62,44.89,74.1,8.19
431,Samāstipur,82,IN,1594694796,66.0,25.85,85.78,90.25,7.58
432,Kavaratti,100,IN,1594694796,77.0,10.57,72.64,83.17,9.1
433,Taltal,24,CL,1594694346,74.0,-25.4,-70.48,53.83,1.66
434,Presidencia Roque Sáenz Peña,0,AR,1594694796,70.0,-26.79,-60.44,49.17,4.94
435,Baruun-Urt,55,MN,1594694514,45.0,46.68,113.28,78.42,3.09
436,Antsla,0,EE,1594694796,93.0,57.83,26.54,51.01,5.82
437,Hare Bay,75,CA,1594694796,83.0,48.85,-54.01,69.8,10.29
438,Damietta,1,EG,1594694796,83.0,31.42,31.81,77.0,6.93
439,Rajaori,0,IN,1594694797,41.0,33.38,74.3,85.96,0.85
440,Hokitika,74,NZ,1594694797,66.0,-42.72,170.97,52.39,3.78
441,Tegul'det,38,RU,1594694502,55.0,57.31,88.17,75.51,3.69
442,Teya,0,RU,1594694797,50.0,60.38,92.63,74.48,7.72
443,Kamaishi,75,JP,1594694797,93.0,39.27,141.88,66.2,3.36
444,Kavieng,97,PG,1594694797,71.0,-2.57,150.8,83.62,7.96
445,Manuk Mangkaw,94,PH,1594694797,70.0,4.8,119.85,83.7,5.21
446,Northam,100,GB,1594694427,100.0,51.03,-4.22,59.0,1.01
447,Port Blair,79,IN,1594694325,75.0,11.67,92.75,83.39,14.67
448,Sinnamary,0,GF,1594694449,83.0,5.38,-52.95,77.95,6.98
449,Lagoa,7,PT,1594694798,79.0,39.05,-27.98,68.32,8.59
450,Chongoyape,12,PE,1594694798,71.0,-6.64,-79.39,68.14,1.28
451,Auki,100,SB,1594694697,63.0,-8.77,160.7,85.64,3.02
452,São Félix do Xingu,21,BR,1594694798,54.0,-6.64,-51.99,70.95,2.01
453,San Cristobal,97,VE,1594694070,86.0,7.77,-72.22,65.3,4.27
454,Forsytheganj,21,BY,1594694798,91.0,52.63,29.73,49.82,9.91
455,Itarema,25,BR,1594694206,78.0,-2.92,-39.92,75.18,10.47
456,Grindavik,75,IS,1594694209,93.0,63.84,-22.43,48.2,9.17
457,Panama City,100,PA,1594694744,94.0,8.99,-79.52,77.0,5.82
458,Baker City,1,US,1594694799,22.0,44.77,-117.83,75.2,14.99
459,Ventersburg,0,ZA,1594694799,94.0,-28.09,27.14,33.39,6.82
460,Jacmel,30,HT,1594694799,70.0,18.23,-72.53,84.2,10.29
461,Poço das Trincheiras,7,BR,1594694799,96.0,-9.31,-37.29,65.26,2.33
462,Jiangyou,100,CN,1594694799,91.0,31.77,104.72,73.9,3.09
463,Beni Suef,0,EG,1594694799,74.0,29.07,31.1,70.66,7.25
464,Sola,99,VU,1594694799,78.0,-13.88,167.55,80.13,18.88
465,Rocha,0,UY,1594694423,73.0,-34.48,-54.33,38.32,11.5
466,College Station,1,US,1594694690,49.0,30.63,-96.33,91.4,13.87
467,Lorengau,22,PG,1594694706,68.0,-2.02,147.27,84.24,5.59
468,Shanghai,20,CN,1594694521,83.0,31.22,121.46,81.0,4.47
469,Lubumbashi,0,CD,1594694800,80.0,-11.66,27.48,50.72,2.66
470,Doka,91,SD,1594694800,74.0,13.52,35.77,73.18,12.21
471,Alyangula,40,AU,1594694800,50.0,-13.85,136.42,78.8,10.29
472,Kenora,90,CA,1594694558,88.0,49.82,-94.43,64.4,9.17
473,Novoil'insk,0,RU,1594694800,34.0,51.68,108.71,86.86,2.51
474,Wetter,40,DE,1594694800,93.0,50.9,8.72,55.99,3.36
475,Tevaitoa,85,PF,1594694800,79.0,-16.78,-151.5,79.88,15.46
476,Banda Aceh,86,ID,1594694434,71.0,5.56,95.32,83.7,2.13
477,Dilla,98,ET,1594694800,81.0,6.41,38.31,61.36,2.46
478,Jardim,72,BR,1594694800,74.0,-21.48,-56.14,72.41,1.45
479,Tanout,30,NE,1594694801,53.0,14.97,8.89,81.59,10.67
480,Dingle,54,PH,1594694801,66.0,11.0,122.67,87.33,3.02
481,Santa Cruz de la Sierra,75,BO,1594694680,94.0,-17.8,-63.17,71.6,9.17
482,Huimanguillo,5,MX,1594694801,70.0,17.85,-93.38,86.0,5.82
483,Kaduqli,94,SD,1594694801,85.0,11.02,29.72,73.13,6.71
484,Matamoros,20,MX,1594694801,15.0,25.53,-103.25,96.8,6.93
485,Montefiascone,85,IT,1594694801,67.0,42.54,12.04,61.0,1.01
486,Sosnovo-Ozerskoye,0,RU,1594694801,52.0,52.52,111.54,75.52,3.78
487,Belaya Gora,100,RU,1594694801,43.0,68.53,146.42,69.93,11.92
488,Taoudenni,26,ML,1594694207,19.0,22.68,-3.98,96.69,7.07
489,Upata,100,VE,1594694802,94.0,8.01,-62.4,71.58,4.54
490,Kahului,40,US,1594694571,45.0,20.89,-156.47,87.8,25.28
491,Longonjo,0,AO,1594694802,42.0,-12.91,15.25,49.19,3.36
492,Beyneu,0,KZ,1594694802,21.0,45.32,55.2,92.7,14.79
493,Barra do Garças,1,BR,1594694802,52.0,-15.89,-52.26,72.86,2.33
494,San Jose,20,US,1594694736,53.0,37.34,-121.89,73.99,10.29
495,Yinchuan,27,CN,1594694778,37.0,38.47,106.27,83.23,6.62
496,Verkhovazh'ye,85,RU,1594694802,96.0,60.75,42.05,57.15,3.18
497,Kharitonovo,100,RU,1594694802,92.0,61.4,47.5,60.71,3.71
498,Morón,0,AR,1594694802,55.0,-34.65,-58.62,44.01,1.01
499,Kalāleh,90,IR,1594694552,83.0,37.38,55.49,75.2,3.15
500,Aklavik,75,CA,1594694526,37.0,68.22,-135.01,69.8,6.93
501,Kirakira,100,SB,1594694803,78.0,-10.45,161.92,82.56,12.91
502,Petropavlovsk-Kamchatskiy,98,RU,1594694803,67.0,53.05,158.65,62.6,8.95
503,Najrān,40,SA,1594694206,20.0,17.49,44.13,82.4,4.7
504,Bondo,99,CD,1594694519,98.0,3.81,23.69,68.49,1.07
505,Safaga,0,EG,1594694803,48.0,26.73,33.94,84.2,10.29
506,Santa Rosa,20,PH,1594694803,74.0,14.31,121.11,90.0,5.82
507,Ulaangom,100,MN,1594694495,87.0,49.98,92.07,56.66,17.36
508,Shitanjing,26,CN,1594694322,41.0,39.23,106.34,79.07,13.02
509,Mergen,0,CN,1594694803,44.0,49.18,125.22,88.14,2.37
510,Dongsheng,20,CN,1594694804,40.0,39.82,109.98,77.52,5.12
511,Conway,65,US,1594694713,78.0,35.09,-92.44,81.0,4.07
512,Olafsvik,100,IS,1594694804,82.0,64.89,-23.71,51.55,3.13
513,Takoradze,30,GH,1594694460,88.0,4.88,-1.76,74.35,11.07
514,Madang,99,PG,1594694509,66.0,-5.22,145.8,85.24,6.51
515,Weligama,100,LK,1594694804,81.0,5.97,80.42,82.51,9.46
516,Shingū,75,JP,1594694804,100.0,33.73,135.98,77.0,10.29
517,Biltine,70,TD,1594694804,41.0,14.53,20.92,85.32,3.6
518,Freetown,100,SL,1594694804,90.0,8.48,-13.23,75.6,8.08
519,Harper,100,LR,1594694439,83.0,4.38,-7.72,75.33,10.27
520,Eilat,0,IL,1594694804,51.0,29.56,34.95,80.6,8.05
521,Leticia,75,CO,1594694804,100.0,-4.22,-69.94,77.0,3.36
522,Nadvoitsy,5,RU,1594694805,91.0,63.87,34.32,54.95,6.8
523,Belmonte,75,BR,1594694805,88.0,-15.86,-38.88,71.6,2.24
524,Kichera,3,RU,1594694805,55.0,55.94,110.1,76.51,3.94
525,Marrakesh,20,MA,1594694805,64.0,31.63,-8.01,75.2,5.82
526,Mogadishu,67,SO,1594694359,84.0,2.04,45.34,77.23,13.98
527,Gijang,90,KR,1594694504,83.0,35.24,129.21,69.8,10.29
528,Tazovsky,100,RU,1594694725,85.0,67.47,78.7,45.55,19.22
529,Pau dos Ferros,0,BR,1594694805,69.0,-6.11,-38.21,69.48,2.37
530,Otjimbingwe,0,,1594694805,52.0,-22.35,16.13,45.25,3.53
531,Kalaswala,0,PK,1594694805,83.0,32.2,74.65,84.2,5.48
532,Faya,2,SA,1594694549,40.0,18.39,42.45,69.8,5.82
533,Upington,1,ZA,1594694806,83.0,-28.45,21.26,37.35,9.6
534,Ketchikan,90,US,1594694806,77.0,55.34,-131.65,60.8,11.41
535,Sosnovka,1,RU,1594694806,84.0,56.26,51.28,74.7,5.19
536,Gardner,0,US,1594694806,34.0,42.58,-72.0,66.99,4.03
537,Norrtälje,30,SE,1594694806,73.0,59.76,18.7,59.0,4.0
538,Havelock,40,US,1594694806,88.0,34.88,-76.9,77.0,3.36
539,Esso,100,RU,1594694806,63.0,55.93,158.7,70.45,7.38
540,Muhafazat Lahij,63,YE,1594694807,63.0,13.17,44.58,86.23,5.08
541,Kushmurun,0,KZ,1594694807,53.0,52.45,64.63,75.92,5.39
542,Castañas,94,PH,1594694807,64.0,13.88,121.55,87.22,5.91
543,Valerianovsk,1,RU,1594694807,65.0,58.76,59.55,66.02,3.44
544,Antofagasta,0,CL,1594694641,81.0,-23.65,-70.4,53.6,5.82
545,Ampanihy,0,MG,1594694807,93.0,-24.7,44.75,57.16,3.15
546,Puerto Rondón,78,CO,1594694808,90.0,6.28,-71.1,74.05,2.71
547,Santa Inês,7,BR,1594694808,93.0,-3.67,-45.38,72.0,3.38
548,Conop,0,RO,1594694808,87.0,46.1,21.88,52.0,8.05
549,Road Town,1,VG,1594694808,78.0,18.42,-64.62,82.99,5.82
550,Somerset East,75,ZA,1594694808,70.0,-32.72,25.59,40.86,21.45
551,Hasaki,75,JP,1594694808,88.0,35.73,140.83,77.0,8.05
552,Wuxue,100,CN,1594694808,72.0,29.85,115.55,84.54,5.17
553,Kapatalan,20,PH,1594694809,74.0,14.47,121.49,90.0,5.82
554,Yeppoon,0,AU,1594694809,26.0,-23.13,150.73,69.8,13.87
555,Birjand,20,IR,1594694809,25.0,32.87,59.22,75.2,6.93
556,Makakilo City,75,US,1594694809,48.0,21.35,-158.09,87.8,9.17
557,Lata,0,PT,1594694514,75.0,40.16,-8.33,72.0,2.28
558,Buchanan,100,LR,1594694438,90.0,5.88,-10.05,74.91,11.81
559,Christchurch,0,NZ,1594694752,61.0,-43.53,172.63,51.01,2.24
560,Huoqiu,100,CN,1594694809,92.0,32.34,116.27,71.76,2.17
561,Port-Cartier,75,CA,1594694809,87.0,50.03,-66.87,61.0,2.24
562,Chumikan,28,RU,1594694810,75.0,54.72,135.31,61.75,7.45
563,Port Macquarie,75,AU,1594694446,93.0,-31.43,152.92,55.99,20.8
564,Sherbakul',22,RU,1594694810,53.0,54.63,72.4,77.0,4.47
565,Tigzirt,0,DZ,1594694810,84.0,36.89,4.12,72.19,6.62
566,Pontal do Paraná,100,BR,1594694810,98.0,-25.65,-48.51,54.0,10.87
567,Chipinge,0,ZW,1594694810,52.0,-20.19,32.62,49.91,3.24
568,Loudi,100,CN,1594694810,80.0,27.73,111.99,83.03,2.28
569,Manaure,1,CO,1594694811,75.0,11.78,-72.44,81.97,14.94
